<markers>
    <marker id="1" tag="tag1" name="Ifox solutions" address="B 302 Sumel Business Park, 7, Cross Road, Soni ni chali, Ramrajya Nagar, Odhav, Ahmedabad, Gujarat 380024" lat="23.021645" lng="72.637993" type="company"/>
    <marker id="11"  tag="tag2" name="Shree Ram Emporium" address="Shree Ram Emporium, Mullavada, Balasinor, Gujarat 388255" lat="22.956231" lng="73.335889" type="shop"/>
	<marker id="12"  tag="tag3" name="Alpha One Mall" address="261, Sarkari Vasahat Road, Vastrapur, Ahmedabad, Gujarat 380006" lat="23.040145" lng="72.531450" type="shop"/>
    <marker id="2" name="Young Henrys" address="76 Wilford Street, Newtown, NSW" lat="-33.898113" lng="151.174469" type="bar"/>
    <marker id="3" name="Hunter Gatherer" address="Greenwood Plaza, 36 Blue St, North Sydney NSW" lat="-33.840282" lng="151.207474" type="bar"/>
    <marker id="4" name="The Potting Shed" address="7A, 2 Huntley Street, Alexandria, NSW" lat="-33.910751" lng="151.194168" type="bar"/>
    <marker id="5" name="Nomad" address="16 Foster Street, Surry Hills, NSW" lat="-33.879917" lng="151.210449" type="bar"/>
    <marker id="6" name="Three Blue Ducks" address="43 Macpherson Street, Bronte, NSW" lat="-33.906357" lng="151.263763" type="restaurant"/>
    <marker id="7" name="Single Origin Roasters" address="60-64 Reservoir Street, Surry Hills, NSW" lat="-33.881123" lng="151.209656" type="restaurant"/>
    <marker id="8" name="Red Lantern" address="60 Riley Street, Darlinghurst, NSW" lat="-33.874737" lng="151.215530" type="restaurant"/>
</markers>